osm_id,code,fclass,name,point_x,point_y,lon,lat
4812270190,2012,community_centre,Mustang Community Center,-95.4555070000,29.5200609000,-95.45551,29.52006
4882440016,2501,supermarket,Foodarama,-95.4663316000,29.5945796000,-95.46633,29.59458
356701380,2082,school,Calvary School,-95.7655751000,29.5758687000,-95.76558,29.57587
356703438,2082,school,Crockett School,-95.7702279000,29.5860700000,-95.77023,29.58607
356719771,2082,school,Robert E Lee School,-95.8099513000,29.5527383000,-95.80995,29.55274
356727250,2082,school,West Jackson High School,-95.8057845000,29.5644045000,-95.80578,29.5644
356800498,2082,school,Youth Opportunity Unlimited School,-95.7610329000,29.5784487000,-95.76103,29.57845
356800702,2082,school,T L Pink Elementary School,-95.7724501000,29.5896810000,-95.77245,29.58968
356800721,2082,school,Fort Bend County Alternative School,-95.7921884000,29.5610073000,-95.79219,29.56101
356800759,2082,school,Jackson Elementary School,-95.8067477000,29.5654376000,-95.80675,29.56544
356800771,2082,school,Juan Seguin Elementary School,-95.7702279000,29.5857923000,-95.77023,29.58579
356800795,2082,school,Alternative Learning Center,-95.8096300000,29.5530300000,-95.80963,29.55303
356859134,2082,school,Meyer Elementary School,-95.8050900000,29.5114200000,-95.80509,29.51142
356859605,2082,school,Holy Rosary Catholic School,-95.8181043000,29.5534182000,-95.8181,29.55342
356859996,2082,school,Juvenile Detention Center Alternative School,-95.7498890000,29.5720124000,-95.74989,29.57201
356860121,2082,school,Living Water Christian School,-95.7774694000,29.5412460000,-95.77747,29.54125
1234229401,2303,cafe,Shipley Donuts,-95.7813180000,29.5653731000,-95.78132,29.56537
3279644606,2402,motel,Hampton Inn & Suites,-95.7595459000,29.5476217000,-95.75955,29.54762
6781830920,2303,cafe,OG Tea,-95.6766245000,29.5889992000,-95.67662,29.589
5760943324,2303,cafe,Mugz Coffee Bar,-95.7434018000,29.6023413000,-95.7434,29.60234
7357622087,2082,school,Bowie Middle School,-95.7155924000,29.6259360000,-95.71559,29.62594
356867309,2082,school,University of Houston West Houston Institute,-95.7568419000,29.7283003000,-95.75684,29.7283
3907001319,2501,supermarket,Whole Foods Market,-95.7718631000,29.7123729000,-95.77186,29.71237
4775403339,2501,supermarket,ALDI,-95.7422861000,29.6640922000,-95.74229,29.66409
4937805190,2303,cafe,Starbucks,-95.7453680000,29.6639031000,-95.74537,29.6639
5315596463,2501,supermarket,Walmart Neighborhood Market,-95.7930340000,29.7439900000,-95.79303,29.74399
5910814791,2501,supermarket,Trader Joe's,-95.7753557000,29.7404182000,-95.77536,29.74042
6452907429,2303,cafe,Hurts Donut Co,-95.8147389000,29.7008406000,-95.81474,29.70084
6634481701,2012,community_centre,Harvest Green Farmhouse,-95.7221404000,29.6436883000,-95.72214,29.64369
7151982817,2303,cafe,Starbucks,-95.7129279000,29.6578137000,-95.71293,29.65781
7828207996,2501,supermarket,H-E-B,-95.8159846000,29.6957049000,-95.81598,29.6957
356860219,2082,school,Beasley Elementary School,-95.9153820000,29.4929809000,-95.91538,29.49298
356860453,2082,school,Powell Point Elementary School,-96.0221281000,29.4780572000,-96.02213,29.47806
356710409,2082,school,Long Point School,-95.7330046000,29.3891314000,-95.733,29.38913
356741473,2082,school,Needville High School,-95.8023961000,29.3707310000,-95.8024,29.37073
356744709,2082,school,Routt School,-95.8613413000,29.3483006000,-95.86134,29.3483
356748933,2082,school,Woodrow School,-95.6416131000,29.3516311000,-95.64161,29.35163
356859232,2082,school,Needville Junior High School,-95.7998432000,29.3726807000,-95.79984,29.37268
356860387,2082,school,Needville Middle School,-95.7990320000,29.3732461000,-95.79903,29.37325
3614275799,2501,supermarket,Harvest Natural Market,-95.7983050000,29.7504960000,-95.7983,29.7505
6757715400,2083,kindergarten,Muhchkins Academy,-95.6886361000,29.6992529000,-95.68864,29.69925
356800671,2082,school,Stafford High School,-95.5415586000,29.6020395000,-95.54156,29.60204
356800678,2082,school,Stafford Middle School,-95.5401907000,29.6020908000,-95.54019,29.60209
1681677513,2501,supermarket,R & R Produce,-95.5578334000,29.6216449000,-95.55783,29.62164
2752819050,2402,motel,Comfort Suites,-95.5855340000,29.6330470000,-95.58553,29.63305
4227549122,2402,motel,Mustang Inn and Suites,-95.5092476000,29.6193660000,-95.50925,29.61937
4227549131,2303,cafe,Shipley Donuts,-95.5260516000,29.6020026000,-95.52605,29.602
4227549135,2501,supermarket,Fiesta Mart Supermarket,-95.5253515000,29.5973965000,-95.52535,29.5974
4227549149,2501,supermarket,Foodarama,-95.5267195000,29.5824249000,-95.52672,29.58242
4227549155,2303,cafe,Bakery Donuts,-95.5455968000,29.5826616000,-95.5456,29.58266
4227549184,2501,supermarket,Welfresh Market,-95.5834046000,29.5826319000,-95.5834,29.58263
4227595089,2501,supermarket,99 Ranch Market,-95.5995381000,29.5886311000,-95.59954,29.58863
4534721790,2082,school,Stafford Intermediate School,-95.5442029000,29.6050759000,-95.5442,29.60508
4534721791,2082,school,Stafford Primary School,-95.5414403000,29.6040871000,-95.54144,29.60409
5372620387,2501,supermarket,Aldi,-95.5827063000,29.6464818000,-95.58271,29.64648
7076217079,2303,cafe,Mango Hut,-95.5828493000,29.5821654000,-95.58285,29.58217
7076543858,2501,supermarket,Jusgo Supermarket,-95.6003083000,29.5889911000,-95.60031,29.58899
356721120,2082,school,Saint Theresa School,-95.6321684000,29.6285672000,-95.63217,29.62857
356800714,2082,school,Fort Bend County Alternative School - Fort Bend,-95.6369709000,29.6257702000,-95.63697,29.62577
356865552,2110,hospital,HealthSouth Sugar Land Rehabilitation,-95.6332343000,29.6044106000,-95.63323,29.60441
1236685966,2501,supermarket,Whole Foods Market,-95.6233281000,29.6000278000,-95.62333,29.60003
2225388454,2303,cafe,Starbucks,-95.6223548000,29.5961466000,-95.62235,29.59615
2631836925,2501,supermarket,H-E-B,-95.6458564000,29.6080214000,-95.64586,29.60802
4414028008,2303,cafe,Tea House and Coffee,-95.6318776000,29.5849125000,-95.63188,29.58491
5315598024,2501,supermarket,Walmart Neighborhood Market,-95.6174000000,29.6521000000,-95.6174,29.6521
7035034731,2082,school,Cambridge Montessori School,-95.6622910000,29.6066009000,-95.66229,29.6066
4227549173,2501,supermarket,Kroger,-95.5655009000,29.5636313000,-95.5655,29.56363
4227614596,2501,supermarket,Aldi Market,-95.5476226000,29.5430474000,-95.54762,29.54305
4414027273,2084,college,,-95.5398177000,29.5333529000,-95.53982,29.53335
5315597580,2501,supermarket,Walmart Supercenter,-95.5167250000,29.5366030000,-95.51672,29.5366
5888558738,2081,university,University of Houston at Sugar Land,-95.6504883000,29.5752212000,-95.65049,29.57522
6655625789,2501,supermarket,Kroger,-95.5843055000,29.5516946000,-95.58431,29.55169
6747280661,2303,cafe,Cougar Corner,-95.6514900000,29.5747756000,-95.65149,29.57478
7075942811,2303,cafe,Republic Roots Coffee + Juice Co.,-95.5870915000,29.5496643000,-95.58709,29.54966
5256066562,2303,cafe,Starbucks,-95.8436498000,29.7631692000,-95.84365,29.76317
5256066612,2303,cafe,Southern Maid Donuts,-95.8523307000,29.7511634000,-95.85233,29.75116
5256216632,2303,cafe,Daily Donuts,-95.8459162000,29.7322727000,-95.84592,29.73227
5256216755,2303,cafe,Southern Maid Donuts,-95.8454005000,29.7051424000,-95.8454,29.70514
5863890443,2501,supermarket,Walmart Supercenter,-95.8412690000,29.6975400000,-95.84127,29.69754
6086145368,2303,cafe,Starbucks,-95.8326023000,29.7763712000,-95.8326,29.77637
7151987591,2501,supermarket,H-E-B,-95.8484604000,29.7202704000,-95.84846,29.72027
368160946,2002,fire_station,Fresno Volunteer Fire Department,-95.4560675000,29.5193398000,-95.45607,29.51934
368161242,2002,fire_station,Houston Fire Department Station 80,-95.4835174000,29.5911909000,-95.48352,29.59119
368160446,2009,courthouse,Fort Bend County Courthouse,-95.7605054000,29.5824589000,-95.76051,29.58246
368160704,2002,fire_station,Rosenberg Fire Department Station 1,-95.8053816000,29.5575063000,-95.80538,29.55751
368160706,2002,fire_station,Richmond Fire Department,-95.7596523000,29.5830912000,-95.75965,29.58309
368160943,2002,fire_station,Rosenberg Fire Department Station 2,-95.7737770000,29.5509478000,-95.77378,29.55095
368161134,2002,fire_station,Rosenberg Fire Department - Administration,-95.8047846000,29.5577494000,-95.80478,29.55775
368161261,2002,fire_station,Beasley Volunteer Fire Department,-95.8078000000,29.5199000000,-95.8078,29.5199
368162306,2008,town_hall,Rosenberg City Hall,-95.8060881000,29.5467383000,-95.80609,29.54674
368162348,2001,police,Richmond Police Department,-95.7643174000,29.5836921000,-95.76432,29.58369
368162479,2001,police,Fort Bend County Sheriff's Office,-95.7536390000,29.5741545000,-95.75364,29.57415
368162486,2001,police,Rosenberg Police Department,-95.8063641000,29.5580115000,-95.80636,29.55801
5757418947,2005,post_office,Pecan Grove Postal,-95.7425193000,29.6209597000,-95.74252,29.62096
368160888,2002,fire_station,Community Volunteer Fire Department,-95.7378663000,29.7040695000,-95.73787,29.70407
368160484,2002,fire_station,Orchard Volunteer Fire Department,-95.9693268000,29.6024336000,-95.96933,29.60243
368160804,2002,fire_station,Beasley Fire Department,-95.9184018000,29.4998397000,-95.9184,29.49984
368162458,2001,police,Beasley Police Department,-95.9150737000,29.4961520000,-95.91507,29.49615
368160652,2002,fire_station,Needville Fire Department,-95.8401878000,29.3981725000,-95.84019,29.39817
368160745,2002,fire_station,Fairchild Volunteer Fire Department,-95.7764338000,29.4326164000,-95.77643,29.43262
368160997,2002,fire_station,Kendleton Volunteer Fire Department,-96.0017376000,29.4472963000,-96.00174,29.4473
368161581,2007,library,West Columbia Branch Library,-95.6421684000,29.3013545000,-95.64217,29.30135
368162283,2001,police,Kendleton Police Department,-95.9961904000,29.4496312000,-95.99619,29.44963
368162700,2001,police,Needville Police Department,-95.8401887000,29.3981640000,-95.84019,29.39816
368160939,2002,fire_station,Sugar Land Fire Department Station 3,-95.5949027000,29.5914744000,-95.5949,29.59147
368160940,2002,fire_station,Sugar Land Fire Department Station 2,-95.6072984000,29.6410420000,-95.6073,29.64104
368160945,2002,fire_station,Missouri City Fire and Rescue Services Station 1,-95.5674358000,29.5821037000,-95.56744,29.5821
368160969,2002,fire_station,Missouri City Fire and Rescue Services Station 3,-95.5271310000,29.5909771000,-95.52713,29.59098
368161062,2002,fire_station,Stafford Volunteer Fire Department Station 2,-95.5582106000,29.6330996000,-95.55821,29.6331
368161063,2002,fire_station,Stafford Volunteer Fire Department Station 1,-95.5561970000,29.6152270000,-95.5562,29.61523
368161286,2002,fire_station,Fire Station Number 3,-95.5942000000,29.5919000000,-95.5942,29.5919
368161287,2002,fire_station,Fire Station Number 3,-95.5271290000,29.5908840000,-95.52713,29.59088
368161441,2002,fire_station,Missouri City Fire Department,-95.5269000000,29.6056000000,-95.5269,29.6056
368161957,2007,library,Fort Bend County Library,-95.5293000000,29.6048000000,-95.5293,29.6048
368162241,2001,police,Stafford Police Department,-95.5553100000,29.6152710000,-95.55531,29.61527
368162368,2001,police,Meadows Place Police Department,-95.5771746000,29.6468265000,-95.57717,29.64683
368162471,2001,police,Missouri City Police Department,-95.5668701000,29.5819438000,-95.56687,29.58194
368162758,2099,public_building,Sugar Land Fire Deparmtent - Chief / Administrative Offices,-95.6004816000,29.6335884000,-95.60048,29.63359
2819431301,2009,courthouse,Municipal Courts,-95.5544550000,29.6149330000,-95.55446,29.61493
4227549154,2005,post_office,The UPS Store,-95.5438977000,29.5822056000,-95.5439,29.58221
4227549161,2009,courthouse,Missouri City Municipal Court,-95.5661795000,29.5815192000,-95.56618,29.58152
4251731235,2005,post_office,United States Post Office,-95.5273253000,29.5982098000,-95.52733,29.59821
368160942,2002,fire_station,Sugar Land Fire Department Station 4,-95.6179846000,29.5853352000,-95.61798,29.58534
368161299,2002,fire_station,Fire Station Number 4,-95.6186000000,29.5858000000,-95.6186,29.5858
2225391034,2008,town_hall,Sugar Land,-95.6217379000,29.5953070000,-95.62174,29.59531
4404167189,2007,library,Fort Bend County Library,-95.6168095000,29.5858843000,-95.61681,29.58588
368160941,2002,fire_station,Sugar Land Fire Department Station 5,-95.6309192000,29.5590774000,-95.63092,29.55908
368161064,2002,fire_station,Thompsons Volunteer Fire Department,-95.5853794000,29.4964270000,-95.58538,29.49643
4414027272,2007,library,,-95.5393671000,29.5324288000,-95.53937,29.53243
6655586335,2005,post_office,PostalAnnex,-95.5857056000,29.5514682000,-95.58571,29.55147
4389817118,2005,post_office,United States Post Office,-95.8170400000,29.7713682000,-95.81704,29.77137
5256216777,2005,post_office,The UPS Store,-95.8467270000,29.6972893000,-95.84673,29.69729
