osm_id,code,fclass,name,point_x,point_y,lon,lat
356734924,2082,school,Gee High School,-96.9541716000,33.3959473000,-96.95417,33.39595
356745606,2082,school,Saint Thomas School,-96.9541716000,33.4053916000,-96.95417,33.40539
356748262,2082,school,Washington School,-96.9519493000,33.3998361000,-96.95195,33.39984
356793493,2082,school,Lake Dallas Intermediate School,-97.0191750000,33.1231763000,-97.01918,33.12318
356793499,2082,school,Lake Dallas Middle School,-97.0183417000,33.1231763000,-97.01834,33.12318
356793504,2082,school,Lake Dallas Primary School,-97.0302976000,33.1290938000,-97.0303,33.12909
1814276723,2501,supermarket,Diamond,-96.9842795000,33.2937266000,-96.98428,33.29373
1814437868,2405,hostel,,-96.9999582000,33.4052549000,-96.99996,33.40525
4633799817,2501,supermarket,La Azteca Meat Market,-96.9426445000,33.1581000000,-96.94264,33.1581
4724327267,2082,school,Lakeview Elementary School,-96.9069675000,33.1889085000,-96.90697,33.18891
4724327276,2082,school,Chavez Elementary School,-96.9206420000,33.1752394000,-96.92064,33.17524
5222516195,2501,supermarket,Brookshire Brothers,-96.9527692000,33.3898327000,-96.95277,33.38983
5315597522,2501,supermarket,Walmart Supercenter,-96.9840240000,33.2280070000,-96.98402,33.22801
6595462420,2303,cafe,Starbucks,-97.0409750000,33.1294962000,-97.04098,33.1295
2187282468,2303,cafe,Starbucks,-96.8876366000,33.0252949000,-96.88764,33.02529
3956089070,2501,supermarket,Can's,-96.9661897000,33.0056817000,-96.96619,33.00568
5357780478,2303,cafe,Starbucks,-96.9693006000,33.0100511000,-96.9693,33.01005
5357780479,2303,cafe,Starbucks,-96.9706278000,33.0124461000,-96.97063,33.01245
6642372012,2303,cafe,Starbucks,-96.9616178000,32.9991497000,-96.96162,32.99915
5244776507,2501,supermarket,Kroger,-96.8774133000,33.2201917000,-96.87741,33.22019
7755158195,2082,school,Stuber Elementrary,-96.8427867000,33.2293315000,-96.84279,33.22933
356704829,2082,school,Double Oak School,-97.1325121000,33.0584555000,-97.13251,33.05846
506852000,2082,school,Castle Mound Montessori,-97.0790390000,33.0344744000,-97.07904,33.03447
506852001,2082,school,C2 Education,-97.0701126000,33.0378850000,-97.07011,33.03789
506852003,2082,school,Pre-School Play Time,-97.0682930000,33.0406695000,-97.06829,33.04067
510273063,2082,school,Montessori Rainbow School,-97.0687930000,33.0258249000,-97.06879,33.02582
5315596638,2501,supermarket,Walmart Neighborhood Market,-97.0719560000,33.0160160000,-97.07196,33.01602
6221908775,2501,supermarket,Kroger,-97.0721316000,33.0347056000,-97.07213,33.03471
6336123961,2303,cafe,Starwood Cafe,-97.0808931000,33.0651425000,-97.08089,33.06514
6336123962,2303,cafe,Starbucks,-97.0813245000,33.0659114000,-97.08132,33.06591
1798892823,2501,supermarket,Aldi,-96.8542149000,32.9959341000,-96.85421,32.99593
1798892824,2303,cafe,Starbucks,-96.8548989000,32.9959026000,-96.8549,32.9959
356711004,2082,school,May Hill School,-97.0833894000,33.1996134000,-97.08339,33.19961
1108138902,2303,cafe,Beth Marie's,-97.0979641000,33.1749951000,-97.09796,33.175
4842701065,2501,supermarket,Sprouts Farmers Market,-97.1069419000,33.1479921000,-97.10694,33.14799
2419660730,2303,cafe,Yun Donuts,-96.8654053000,33.1517081000,-96.86541,33.15171
4724327266,2082,school,Little Elm High School,-96.9069311000,33.1813015000,-96.90693,33.1813
4724395642,2303,cafe,Starbucks,-96.8915959000,33.1673180000,-96.8916,33.16732
5315599513,2501,supermarket,Walmart Supercenter,-96.8895510000,33.1424393000,-96.88955,33.14244
6327543741,2083,kindergarten,Angels Christian Preschool and Daycare,-96.8647706000,33.0975698000,-96.86477,33.09757
356793515,2082,school,Lakeview Elementary School,-97.2083477000,33.0006793000,-97.20835,33.00068
356793575,2082,school,Northwest Alliance Academy,-97.1911251000,33.0440116000,-97.19113,33.04401
356793608,2082,school,Roanoke Elementary School,-97.2230704000,33.0051236000,-97.22307,33.00512
356793810,2082,school,Denton Creek School,-97.1933474000,33.0417894000,-97.19335,33.04179
4072279980,2303,cafe,Java City,-97.2037183000,33.0191716000,-97.20372,33.01917
4072292051,2303,cafe,Starbucks,-97.2058774000,32.9983376000,-97.20588,32.99834
5976468170,2303,cafe,Dove Creek Cafe,-97.2307801000,32.9977897000,-97.23078,32.99779
7161414728,2303,cafe,Sunny Street Cafe,-97.2174909000,33.0126248000,-97.21749,33.01262
7161414738,2303,cafe,Starbucks,-97.2236306000,33.0087331000,-97.22363,33.00873
7573414479,2303,cafe,Vault Coffee,-97.2279461000,32.9999917000,-97.22795,32.99999
7715732740,2083,kindergarten,,-97.2341149000,33.1024628000,-97.23411,33.10246
356793297,2082,school,Sullivan - Keller Early Childhood Center,-97.1191789000,33.2184522000,-97.11918,33.21845
761771773,2014,arts_centre,Painting with a Twist,-97.1341635000,33.2157011000,-97.13416,33.2157
761771805,2303,cafe,,-97.1332836000,33.2143735000,-97.13328,33.21437
761772011,2082,school,,-97.1559164000,33.2189767000,-97.15592,33.21898
2075692209,2303,cafe,Starbucks,-97.1381498000,33.2317574000,-97.13815,33.23176
2657115266,2303,cafe,Naranja Cafe,-97.1510033000,33.2064381000,-97.151,33.20644
2660410301,2303,cafe,Loco Cafe,-97.1325941000,33.2194885000,-97.13259,33.21949
3692202858,2081,university,Zero Energy Research Lab,-97.1488391000,33.2532070000,-97.14884,33.25321
5163337806,2303,cafe,Starbucks,-97.1476051000,33.2111686000,-97.14761,33.21117
5164079539,2303,cafe,Insomnia Cookies,-97.1462675000,33.2149387000,-97.14627,33.21494
6268782590,2501,supermarket,Aldi,-97.1554002000,33.2290423000,-97.1554,33.22904
6900721726,2303,cafe,Starbucks,-97.1361062000,33.2303291000,-97.13611,33.23033
356793331,2082,school,W R Hatfield Intermediate School,-97.2886284000,33.0862330000,-97.28863,33.08623
356793471,2082,school,Justin Elementary School,-97.3089066000,33.0712334000,-97.30891,33.07123
356793579,2082,school,Northwest Ninth Grade Center,-97.2886284000,33.0865108000,-97.28863,33.08651
356793644,2082,school,Gene Pike Middle School,-97.2886284000,33.0865108000,-97.28863,33.08651
911162521,2501,supermarket,IGA Super Save,-97.3061218000,33.0861313000,-97.30612,33.08613
1611140237,2402,motel,Motel 6,-97.2734881000,33.0235986000,-97.27349,33.0236
356725565,2082,school,Texas A and M College Experimental Station Number 6,-97.1947374000,33.2401184000,-97.19474,33.24012
356793279,2082,school,Sanger Middle School,-97.1761251000,33.3637261000,-97.17613,33.36373
356793303,2082,school,Tenderfoot Learning Center,-97.1816809000,33.3615040000,-97.18168,33.3615
356793477,2082,school,Krum High School,-97.2259786000,33.2640356000,-97.22598,33.26404
356793482,2082,school,Krum Middle School,-97.2290793000,33.2602305000,-97.22908,33.26023
356793571,2082,school,Nelson Learning Center,-97.1775145000,33.2376185000,-97.17751,33.23762
356793617,2082,school,Sanger Middle School,-97.1836508000,33.3615056000,-97.18365,33.36151
356793724,2082,school,Argyle School,-97.1858477000,33.1259542000,-97.18585,33.12595
356793749,2082,school,Blanche Dodd Intermediate School,-97.2261928000,33.2601867000,-97.22619,33.26019
356793783,2082,school,Clear Creek Intermediate School,-97.1810181000,33.3150230000,-97.18102,33.31502
356793823,2082,school,Dyer Elementary School,-97.2419615000,33.2612290000,-97.24196,33.26123
1497525864,2082,school,Argyle Elementary School,-97.1783322000,33.1253839000,-97.17833,33.12538
1497546432,2082,school,Argyle High School,-97.1854454000,33.1072679000,-97.18545,33.10727
1814444678,2501,supermarket,Super Save Foods,-97.1806191000,33.3664076000,-97.18062,33.36641
2072450234,2303,cafe,Starbucks,-97.1621603000,33.2302532000,-97.16216,33.23025
506851998,2082,school,Congregation Kol Ami - Early Childhood Education,-97.0608086000,33.0437561000,-97.06081,33.04376
506851999,2082,school,Children's World Learning Center,-97.0607485000,33.0465261000,-97.06075,33.04653
506852005,2082,school,Kids R Kids,-97.0626625000,33.0369640000,-97.06266,33.03696
506852009,2082,school,Primrose School,-97.0626454000,33.0395687000,-97.06265,33.03957
510272719,2082,school,Faith Lutheran Day School,-97.0609652000,33.0676684000,-97.06097,33.06767
510272889,2082,school,Grace Christian Academy,-97.0561072000,33.0291423000,-97.05611,33.02914
510273007,2082,school,Our Little Angels Private School,-97.0563594000,33.0234066000,-97.05636,33.02341
510273033,2082,school,Montessori Unlimited,-97.0564763000,33.0702722000,-97.05648,33.07027
510298626,2082,school,EXPLORATIONS PREP SCHOOL,-97.0538756000,33.0130794000,-97.05388,33.01308
7018344321,2303,cafe,Novel Coffee Roasters,-97.0698801000,33.0144889000,-97.06988,33.01449
1814437191,2005,post_office,Pilot Point Post Office,-96.9609803000,33.3999794000,-96.96098,33.39998
3097698044,2008,town_hall,Little Elm Town Hall,-96.9399226000,33.1578423000,-96.93992,33.15784
3097706829,2002,fire_station,Little Elm Central Fire Station,-96.9393730000,33.1589961000,-96.93937,33.159
3641445996,2008,town_hall,City of Corinth,-97.0572420000,33.1522752000,-97.05724,33.15228
3719144770,2001,police,Corinth Police Department,-97.0611719000,33.1475854000,-97.06117,33.14759
4629381641,2001,police,Aubrey Police Department,-96.9855935000,33.3040293000,-96.98559,33.30403
4629381642,2002,fire_station,Aubrey Fire Department,-96.9856076000,33.3034081000,-96.98561,33.30341
4724327278,2001,police,Little Elm Police Department,-96.9396235000,33.1587831000,-96.93962,33.15878
4724327279,2007,library,Little Elm Public Library,-96.9399173000,33.1579713000,-96.93992,33.15797
7773669848,2002,fire_station,,-96.9294337000,33.2259938000,-96.92943,33.22599
6114223514,2002,fire_station,Lewisville Fire Department - Station #8,-96.8848112000,33.0526643000,-96.88481,33.05266
506572146,2002,fire_station,Fire Station #3,-97.0741485000,33.0142293000,-97.07415,33.01423
5265137589,2002,fire_station,Double Oak Fire Station,-97.0964965000,33.0620644000,-97.0965,33.06206
4760381921,2005,post_office,Qwik Pack & Ship,-97.1039472000,33.1451586000,-97.10395,33.14516
2640348742,2005,post_office,Frisco Post Office - Teel Village Station,-96.8658386000,33.1517113000,-96.86584,33.15171
3097709480,2002,fire_station,Little Elm Fire Station #2,-96.8986077000,33.1799803000,-96.89861,33.17998
3586952002,2002,fire_station,Station #7,-96.8935760000,33.1453764000,-96.89358,33.14538
7715732693,2008,town_hall,Northlake Town Hall,-97.2331334000,33.1018499000,-97.23313,33.10185
7715732694,2001,police,Northlake Police Department,-97.2335502000,33.1017892000,-97.23355,33.10179
761771999,2001,police,,-97.1248369000,33.2146863000,-97.12484,33.21469
1655546239,2008,town_hall,Denton City Hall,-97.1256073000,33.2147901000,-97.12561,33.21479
1655972911,2001,police,Denton County Jail,-97.1130533000,33.2135281000,-97.11305,33.21353
2623908791,2007,library,Eagle Commons Library,-97.1481439000,33.2121132000,-97.14814,33.21211
2625013658,2007,library,UNT Media Library,-97.1510951000,33.2110783000,-97.1511,33.21108
2785512816,2002,fire_station,Denton Fire Station #4,-97.1151641000,33.2491441000,-97.11516,33.24914
911160883,2002,fire_station,Justin Fire Department,-97.2967770000,33.0873269000,-97.29678,33.08733
1108373287,2002,fire_station,Denton City Fire Station 7,-97.1736056000,33.1694966000,-97.17361,33.1695
506912378,2001,police,Flower Mound Police Station,-97.0432700000,33.0413181000,-97.04327,33.04132
1444708785,2008,town_hall,Highland Village City Hall,-97.0532299000,33.0849567000,-97.05323,33.08496
2989525644,2002,fire_station,Fire Station,-97.0211466000,33.0434145000,-97.02115,33.04341
4737132101,2001,police,Highland Village Police Department,-97.0528153000,33.0847488000,-97.05282,33.08475
