,osm_id,code,fclass,name,point_x,point_y,lon,lat
0,477073952,2001,police,Overton Police Station,-94.9804944000,32.2650371000,-94.98049,32.26504
1,1558199890,2005,post_office,Laird Hill,-94.9057968000,32.3530562000,-94.9058,32.35306
2,2331054758,2005,post_office,Post Office,-94.5185231000,32.3159766000,-94.51852,32.31598
3,2331054760,2001,police,Tatum Police Department,-94.5181556000,32.3224412000,-94.51816,32.32244
4,2331054763,2008,town_hall,Tatum City Hall,-94.5181824000,32.3223506000,-94.51818,32.32235
5,4569822273,2005,post_office,,-94.6790766000,31.9177951000,-94.67908,31.9178
6,7227518033,2007,library,Tatum Public Library,-94.5186462000,32.3177434000,-94.51865,32.31774
7,7227550597,2002,fire_station,Tatum Fire Department,-94.5155362000,32.3150362000,-94.51554,32.31504
